[
  { "name": "府中本町", "lng":139.47707, "lat":35.66577,"lines":["東日本旅客鉄道武蔵野線"] },
  { "name": "北府中", "lng":139.47158, "lat":35.68148,"lines":["東日本旅客鉄道武蔵野線"] },
  { "name": "西国分寺", "lng":139.46592, "lat":35.70063,"lines":["東日本旅客鉄道武蔵野線", "東日本旅客鉄道中央線"] },
  { "name": "新小平", "lng":139.47052, "lat":35.73099,"lines":["東日本旅客鉄道武蔵野線"] },
  { "name": "新秋津", "lng":139.49393, "lat":35.77853,"lines":["東日本旅客鉄道武蔵野線"] },
  { "name": "東所沢",  "lng":139.5154, "lat":35.79527,"lines":["東日本旅客鉄道武蔵野線"] },
  { "name": "新座", "lng":139.55611, "lat":35.80378,"lines":["東日本旅客鉄道武蔵野線"] },
  { "name": "北朝霞", "lng":139.58656, "lat":35.81504,"lines":["東日本旅客鉄道武蔵野線"] },
  { "name": "西浦和", "lng":139.62831, "lat":35.84452,"lines":["東日本旅客鉄道武蔵野線"] },
  { "name": "武蔵浦和", "lng":139.64717, "lat":35.8462,"lines":["東日本旅客鉄道武蔵野線"] },
  { "name": "南浦和",  "lng":139.6695, "lat":35.84795,"lines":["東日本旅客鉄道武蔵野線"] },
  { "name": "東浦和",  "lng":139.70467, "lat":35.8641,"lines":["東日本旅客鉄道武蔵野線"] },
  { "name": "東川口", "lng":139.74363, "lat":35.87508,"lines":["東日本旅客鉄道武蔵野線"] },
  { "name": "南越谷", "lng":139.79179, "lat":35.87605,"lines":["東日本旅客鉄道武蔵野線"] },
  { "name": "越谷レイクタウン", "lng":139.82267, "lat":35.87612,"lines":["東日本旅客鉄道武蔵野線"] },
  { "name": "吉川", "lng":139.84338, "lat":35.87664,"lines":["東日本旅客鉄道武蔵野線"] },
  { "name": "吉川美南", "lng":139.857455, "lat":35.868607,"lines":["東日本旅客鉄道武蔵野線"] },
  { "name": "新三郷", "lng":139.86894, "lat":35.85894,"lines":["東日本旅客鉄道武蔵野線"] },
  { "name": "三郷", "lng":139.88763, "lat":35.84476,"lines":["東日本旅客鉄道武蔵野線"] },
  { "name": "南流山", "lng":139.90384, "lat":35.83825,"lines":["東日本旅客鉄道武蔵野線"] },
  { "name": "新松戸", "lng":139.92136, "lat":35.82535, "lines":["東日本旅客鉄道武蔵野線"] },
  { "name": "新八柱", "lng":139.93844, "lat":35.79181,"lines":["東日本旅客鉄道武蔵野線", "新京成電鉄"] },
  { "name": "東松戸", "lng":139.94372, "lat":35.77091, "lines":["東日本旅客鉄道武蔵野線","北総鉄道","京成電鉄京成成田空港線"]},
  { "name": "市川大野", "lng":139.95176, "lat":35.7548,"lines":["東日本旅客鉄道武蔵野線"] },
  { "name": "船橋法典", "lng":139.96659, "lat":35.73071,"lines":["東日本旅客鉄道武蔵野線"] },
  { "name": "西船橋",  "lng":139.95957, "lat":35.70728,"lines":["東日本旅客鉄道武蔵野線","東日本旅客鉄道総武本線","東日本旅客鉄道京葉線"] }

  {"name":"東中山","lat":35.7194,"lng":139.9615,"lines":["京成電鉄京成成田空港線"]},

  {"name":"松戸","lat":35.7840,"lng":139.9003,"lines":["新京成電鉄"]},
  {"name":"八柱","lat":35.7903,"lng":139.9153,"lines":["新京成電鉄"]},
  {"name":"常盤平","lat":35.7995,"lng":139.9303,"lines":["新京成電鉄"]},

  {"name":"立川","lat":35.6983,"lng":139.4130,"lines":["東日本旅客鉄道中央線","東日本旅客鉄道青梅線"]},
  {"name":"西立川","lat":35.7062,"lng":139.3943,"lines":["東日本旅客鉄道青梅線"]},
  {"name":"東中神","lat":35.7068,"lng":139.3778,"lines":["東日本旅客鉄道青梅線"]},
  {"name":"中神","lat":35.7085,"lng":139.3605,"lines":["東日本旅客鉄道青梅線"]},
  {"name":"日野","lat":35.6795,"lng":139.3946,"lines":["東日本旅客鉄道中央線"]},
  {"name":"豊田","lat":35.6595,"lng":139.3813,"lines":["東日本旅客鉄道中央線"]},
  {"name":"国立","lat":35.6996,"lng":139.4463,"lines":["東日本旅客鉄道中央線"]},

  {"name":"東京","lat":35.6812,"lng":139.7671,"lines":["東日本旅客鉄道中央線"]},
  {"name":"新宿","lat":35.6900,"lng":139.7000,"lines":["東日本旅客鉄道中央線"]},
  {"name":"秋葉原","lat":35.6987,"lng":139.7730,"lines":["東日本旅客鉄道総武本線"]}
]
