[
  {"name":"東松戸","lat":35.7709,"lng":139.9437,"lines":["東日本旅客鉄道武蔵野線","北総鉄道","京成電鉄京成成田空港線"]},
  {"name":"新松戸","lat":35.8255,"lng":139.9210,"lines":["東日本旅客鉄道武蔵野線"]},
  {"name":"南流山","lat":35.8392,"lng":139.9033,"lines":["東日本旅客鉄道武蔵野線"]},
  {"name":"西船橋","lat":35.7074,"lng":139.9596,"lines":["東日本旅客鉄道武蔵野線","東日本旅客鉄道総武本線","東日本旅客鉄道京葉線"]},
  {"name":"市川大野","lat":35.7612,"lng":139.9530,"lines":["東日本旅客鉄道武蔵野線"]},
  {"name":"船橋法典","lat":35.7307,"lng":139.9645,"lines":["東日本旅客鉄道武蔵野線"]},
  {"name":"東中山","lat":35.7194,"lng":139.9615,"lines":["京成電鉄京成成田空港線"]},

  {"name":"松戸","lat":35.7840,"lng":139.9003,"lines":["新京成電鉄"]},
  {"name":"八柱","lat":35.7903,"lng":139.9153,"lines":["新京成電鉄"]},
  {"name":"常盤平","lat":35.7995,"lng":139.9303,"lines":["新京成電鉄"]},

  {"name":"立川","lat":35.6983,"lng":139.4130,"lines":["東日本旅客鉄道中央線","東日本旅客鉄道青梅線"]},
  {"name":"西立川","lat":35.7062,"lng":139.3943,"lines":["東日本旅客鉄道青梅線"]},
  {"name":"東中神","lat":35.7068,"lng":139.3778,"lines":["東日本旅客鉄道青梅線"]},
  {"name":"中神","lat":35.7085,"lng":139.3605,"lines":["東日本旅客鉄道青梅線"]},
  {"name":"日野","lat":35.6795,"lng":139.3946,"lines":["東日本旅客鉄道中央線"]},
  {"name":"豊田","lat":35.6595,"lng":139.3813,"lines":["東日本旅客鉄道中央線"]},
  {"name":"国立","lat":35.6996,"lng":139.4463,"lines":["東日本旅客鉄道中央線"]},

  {"name":"東京","lat":35.6812,"lng":139.7671,"lines":["東日本旅客鉄道中央線"]},
  {"name":"新宿","lat":35.6900,"lng":139.7000,"lines":["東日本旅客鉄道中央線"]},
  {"name":"秋葉原","lat":35.6987,"lng":139.7730,"lines":["東日本旅客鉄道総武本線"]}
]
